{
  "construction_sides": [
    {
      "gid": "10118",
      "address": "№ 1 г.Молодечно, угол ул.Виленская - ул.Толстого (Центральная площадь)",
      "name": "В",
      "lon": 54.307023,
      "lat": 26.839621,
      "construction_format": "Билборды",
      "display_type": null,
      "lighting": null,
      "size": "6x3",
      "material": null
    },
    {
      "gid": "11648",
      "address": "№ 1    ул. Молодёжная(микр. Андреевщина)",
      "name": "А",
      "lon": 54.558714,
      "lat": 30.454163,
      "construction_format": "Билборды",
      "display_type": null,
      "lighting": null,
      "size": "6x3",
      "material": null
    },
    {
      "gid": "11648",
      "address": "№ 1    ул. Молодёжная(микр. Андреевщина)",
      "name": "В",
      "lon": 54.558714,
      "lat": 30.454163,
      "construction_format": "Билборды",
      "display_type": null,
      "lighting": null,
      "size": "6x3",
      "material": null
    },
    {
      "gid": "10127",
      "address": "№ 10 г.Молодечно, ул.В.Гостинец, возле остановочного пункта ТЦ \"Модуль\"",
      "name": "А",
      "lon": 54.299664,
      "lat": 26.865029,
      "construction_format": "Билборды",
      "display_type": null,
      "lighting": null,
      "size": "6x3",
      "material": null
    },
    {
      "gid": "11657",
      "address": "№ 10    ул.Советская, 29Б",
      "name": "А",
      "lon": 54.501213,
      "lat": 30.409241,
      "construction_format": "Билборды",
      "display_type": null,
      "lighting": null,
      "size": "6x3",
      "material": null
    },
    {
      "gid": "10128",
      "address": "№ 11 г.Молодечно, угол ул.В.Гостинец - ул.Мира",
      "name": "В",
      "lon": 54.301042,
      "lat": 26.858501,
      "construction_format": "Билборды",
      "display_type": null,
      "lighting": null,
      "size": "6x3",
      "material": null
    },
    {
      "gid": "11658",
      "address": "№ 11    ул.Чернышевского (дискаунтер «Евроопт»)",
      "name": "А",
      "lon": 54.524631,
      "lat": 30.432398,
      "construction_format": "Билборды",
      "display_type": null,
      "lighting": null,
      "size": "6x3",
      "material": null
    },
    {
      "gid": "11658",
      "address": "№ 11    ул.Чернышевского (дискаунтер «Евроопт»)",
      "name": "В",
      "lon": 54.524631,
      "lat": 30.432398,
      "construction_format": "Билборды",
      "display_type": null,
      "lighting": null,
      "size": "6x3",
      "material": null
    },
    {
      "gid": "10129",
      "address": "№ 12 г.Молодечно, Проезд к вещевому рынку",
      "name": "А",
      "lon": 54.299595,
      "lat": 26.861985,
      "construction_format": "Билборды",
      "display_type": null,
      "lighting": null,
      "size": "6x3",
      "material": null
    },
    {
      "gid": "11659",
      "address": "№ 12    ул.Мира(пешеходный мост)",
      "name": "А",
      "lon": 54.51299,
      "lat": 30.414917,
      "construction_format": "Мосты",
      "display_type": null,
      "lighting": null,
      "size": "12x2",
      "material": null
    },
    {
      "gid": "11659",
      "address": "№ 12    ул.Мира(пешеходный мост)",
      "name": "В",
      "lon": 54.51299,
      "lat": 30.414917,
      "construction_format": "Мосты",
      "display_type": null,
      "lighting": null,
      "size": "12x2",
      "material": null
    },
    {
      "gid": "10130",
      "address": "№ 13 г.Молодечно, ул.Ф.Скорины, 19",
      "name": "В",
      "lon": 54.299246,
      "lat": 26.848789,
      "construction_format": "Билборды",
      "display_type": null,
      "lighting": null,
      "size": "6x3",
      "material": null
    },
    {
      "gid": "11660",
      "address": "№ 13    ул.Ленина/ул.Пионерская(Городской Центр культуры)",
      "name": "А",
      "lon": 54.622688,
      "lat": 30.434911,
      "construction_format": "Билборды",
      "display_type": null,
      "lighting": null,
      "size": "6x3",
      "material": null
    },
    {
      "gid": "10131",
      "address": "№ 14 г.Молодечно, ул.Либаво-Роменская, въезд на ЖД-вокзал",
      "name": "А",
      "lon": 54.31522,
      "lat": 26.840032,
      "construction_format": "Билборды",
      "display_type": null,
      "lighting": null,
      "size": "6x3",
      "material": null
    },
    {
      "gid": "11661",
      "address": "№ 14   Трасса М1 (Е30) – М8 (Е95)",
      "name": "А",
      "lon": 54.640811,
      "lat": 30.439434,
      "construction_format": "Билборды",
      "display_type": null,
      "lighting": null,
      "size": "6x3",
      "material": null
    },
    {
      "gid": "10132",
      "address": "№ 15 г.Молодечно, угол ул.Виленская - ул.Волынца (возле фабрики \"Березка\")",
      "name": "А",
      "lon": 54.31056,
      "lat": 26.845086,
      "construction_format": "Билборды",
      "display_type": null,
      "lighting": null,
      "size": "6x3",
      "material": null
    },
    {
      "gid": "10132",
      "address": "№ 15 г.Молодечно, угол ул.Виленская - ул.Волынца (возле фабрики \"Березка\")",
      "name": "В",
      "lon": 54.31056,
      "lat": 26.845086,
      "construction_format": "Билборды",
      "display_type": null,
      "lighting": null,
      "size": "6x3",
      "material": null
    },
    {
      "gid": "11662",
      "address": "№ 15А   Трасса М8 (Е95). Пос. Высокое",
      "name": "А",
      "lon": 54.6409,
      "lat": 30.439348,
      "construction_format": "Билборды",
      "display_type": null,
      "lighting": null,
      "size": "6x3",
      "material": null
    },
    {
      "gid": "11662",
      "address": "№ 15А   Трасса М8 (Е95). Пос. Высокое",
      "name": "В",
      "lon": 54.6409,
      "lat": 30.439348,
      "construction_format": "Билборды",
      "display_type": null,
      "lighting": null,
      "size": "6x3",
      "material": null
    },
    {
      "gid": "10133",
      "address": "№ 16 г.Молодечно, ул.Дублер (возле гипермаркета \"Евроопт\", фабрики Художественных изделий, \"Белинвестбанк\")",
      "name": "А",
      "lon": 54.30880070040544,
      "lat": 26.83523361938332,
      "construction_format": "Билборды",
      "display_type": null,
      "lighting": null,
      "size": "6x3",
      "material": null
    },
    {
      "gid": "10133",
      "address": "№ 16 г.Молодечно, ул.Дублер (возле гипермаркета \"Евроопт\", фабрики Художественных изделий, \"Белинвестбанк\")",
      "name": "В",
      "lon": 54.30880070040544,
      "lat": 26.83523361938332,
      "construction_format": "Билборды",
      "display_type": null,
      "lighting": null,
      "size": "6x3",
      "material": null
    },
    {
      "gid": "11663",
      "address": "№ 16. ул.60 лет БССР(м-н «Алми»)",
      "name": "А",
      "lon": 54.489097,
      "lat": 30.414978,
      "construction_format": "Билборды",
      "display_type": null,
      "lighting": null,
      "size": "6x3",
      "material": null
    },
    {
      "gid": "10134",
      "address": "№ 17 г.Молодечно, ул.В.Гостинец, возле магазина \"Родны кут\" (микрорайон Восточный)",
      "name": "А",
      "lon": 54.295489504019145,
      "lat": 26.887949753100628,
      "construction_format": "Билборды",
      "display_type": null,
      "lighting": null,
      "size": "6x3",
      "material": null
    },
    {
      "gid": "11664",
      "address": "№ 17. Трасса М8. Антоновка",
      "name": "А",
      "lon": 54.400417,
      "lat": 30.444221,
      "construction_format": "Билборды",
      "display_type": null,
      "lighting": null,
      "size": "12x3",
      "material": null
    },
    {
      "gid": "10135",
      "address": "№ 18 г.Молодечно, ул.Космонавтов, возле остановочного пункта Магнит",
      "name": "А",
      "lon": 54.30470923285136,
      "lat": 26.85279186715762,
      "construction_format": "Билборды",
      "display_type": null,
      "lighting": null,
      "size": "6x3",
      "material": null
    },
    {
      "gid": "11665",
      "address": "№  19   Автодорога Р-15Орша -Лепель",
      "name": "А",
      "lon": 54.510869,
      "lat": 30.349281,
      "construction_format": "Билборды",
      "display_type": null,
      "lighting": null,
      "size": "6x3",
      "material": null
    },
    {
      "gid": "10136",
      "address": "№ 19 г.Молодечно, ул.Виленская, на съезде с путепровода",
      "name": "А",
      "lon": 54.31255850037796,
      "lat": 26.851245795863765,
      "construction_format": "Билборды",
      "display_type": null,
      "lighting": null,
      "size": "6x3",
      "material": null
    },
    {
      "gid": "10136",
      "address": "№ 19 г.Молодечно, ул.Виленская, на съезде с путепровода",
      "name": "В",
      "lon": 54.31255850037796,
      "lat": 26.851245795863765,
      "construction_format": "Билборды",
      "display_type": null,
      "lighting": null,
      "size": "6x3",
      "material": null
    },
    {
      "gid": "10119",
      "address": "№ 2 г.Молодечно, угол ул.В.Гостинец-ул.Ф.Скорины",
      "name": "А",
      "lon": 54.306215,
      "lat": 26.850127,
      "construction_format": "Билборды",
      "display_type": null,
      "lighting": null,
      "size": "6x3",
      "material": null
    },
    {
      "gid": "10119",
      "address": "№ 2 г.Молодечно, угол ул.В.Гостинец-ул.Ф.Скорины",
      "name": "В",
      "lon": 54.306215,
      "lat": 26.850127,
      "construction_format": "Билборды",
      "display_type": null,
      "lighting": null,
      "size": "6x3",
      "material": null
    },
    {
      "gid": "11649",
      "address": "№ 2   ул.Ленина(ОАО «Оршаагропроммаш»)",
      "name": "А",
      "lon": 54.539151,
      "lat": 30.447725,
      "construction_format": "Билборды",
      "display_type": null,
      "lighting": null,
      "size": "6x3",
      "material": null
    },
    {
      "gid": "11649",
      "address": "№ 2   ул.Ленина(ОАО «Оршаагропроммаш»)",
      "name": "В",
      "lon": 54.539151,
      "lat": 30.447725,
      "construction_format": "Билборды",
      "display_type": null,
      "lighting": null,
      "size": "6x3",
      "material": null
    },
    {
      "gid": "10137",
      "address": "№ 20 г.Сморгонь, угол ул.Гагарина ул.Я.Колоса",
      "name": "А",
      "lon": 54.476475228752854,
      "lat": 26.39975493175417,
      "construction_format": "Билборды",
      "display_type": null,
      "lighting": null,
      "size": "6x3",
      "material": null
    },
    {
      "gid": "10137",
      "address": "№ 20 г.Сморгонь, угол ул.Гагарина ул.Я.Колоса",
      "name": "В",
      "lon": 54.476475228752854,
      "lat": 26.39975493175417,
      "construction_format": "Билборды",
      "display_type": null,
      "lighting": null,
      "size": "6x3",
      "material": null
    },
    {
      "gid": "10138",
      "address": "№ 21 г.Сморгонь, угол ул.Я.Коласа - ул.Юбилейная",
      "name": "А",
      "lon": 54.47563705952023,
      "lat": 26.409692723323978,
      "construction_format": "Билборды",
      "display_type": null,
      "lighting": null,
      "size": "6x3",
      "material": null
    },
    {
      "gid": "10138",
      "address": "№ 21 г.Сморгонь, угол ул.Я.Коласа - ул.Юбилейная",
      "name": "В",
      "lon": 54.47563705952023,
      "lat": 26.409692723323978,
      "construction_format": "Билборды",
      "display_type": null,
      "lighting": null,
      "size": "6x3",
      "material": null
    },
    {
      "gid": "10139",
      "address": "№ 22 г.Сморгонь, ул.Ленина, напротив дома 93",
      "name": "А",
      "lon": 54.47811847263273,
      "lat": 26.420250076393373,
      "construction_format": "Билборды",
      "display_type": null,
      "lighting": null,
      "size": "6x3",
      "material": null
    },
    {
      "gid": "10139",
      "address": "№ 22 г.Сморгонь, ул.Ленина, напротив дома 93",
      "name": "В",
      "lon": 54.47811847263273,
      "lat": 26.420250076393373,
      "construction_format": "Билборды",
      "display_type": null,
      "lighting": null,
      "size": "6x3",
      "material": null
    },
    {
      "gid": "11666",
      "address": "№ 22   ул.Комсомольская/ул.Ленина",
      "name": "А",
      "lon": 54.508478,
      "lat": 30.425505,
      "construction_format": "Ситиборды",
      "display_type": null,
      "lighting": null,
      "size": "3.72x2.74",
      "material": null
    },
    {
      "gid": "10140",
      "address": "№ 23 г. Сморгонь, ул.Советская, напротив дома 92",
      "name": "А",
      "lon": 54.486427086681886,
      "lat": 26.380006584394778,
      "construction_format": "Билборды",
      "display_type": null,
      "lighting": null,
      "size": "6x3",
      "material": null
    },
    {
      "gid": "10140",
      "address": "№ 23 г. Сморгонь, ул.Советская, напротив дома 92",
      "name": "В",
      "lon": 54.486427086681886,
      "lat": 26.380006584394778,
      "construction_format": "Билборды",
      "display_type": null,
      "lighting": null,
      "size": "6x3",
      "material": null
    },
    {
      "gid": "11667",
      "address": "№ 23   ул.Комсомольская",
      "name": "А",
      "lon": 54.509768,
      "lat": 30.422755,
      "construction_format": "Нетиповые форматы",
      "display_type": null,
      "lighting": null,
      "size": "6x3",
      "material": null
    },
    {
      "gid": "11667",
      "address": "№ 23   ул.Комсомольская",
      "name": "В",
      "lon": 54.509768,
      "lat": 30.422755,
      "construction_format": "Нетиповые форматы",
      "display_type": null,
      "lighting": null,
      "size": "6x3",
      "material": null
    },
    {
      "gid": "11667",
      "address": "№ 23   ул.Комсомольская",
      "name": "С",
      "lon": 54.509768,
      "lat": 30.422755,
      "construction_format": "Нетиповые форматы",
      "display_type": null,
      "lighting": null,
      "size": "6x3",
      "material": null
    },
    {
      "gid": "10141",
      "address": "№ 24 г.Сморгонь, ул.Я.Коласа, 120 (возле гипермаркета Евроопт)",
      "name": "А",
      "lon": 54.47331705629213,
      "lat": 26.416553305277205,
      "construction_format": "Билборды",
      "display_type": null,
      "lighting": null,
      "size": "6x3",
      "material": null
    },
    {
      "gid": "10141",
      "address": "№ 24 г.Сморгонь, ул.Я.Коласа, 120 (возле гипермаркета Евроопт)",
      "name": "В",
      "lon": 54.47331705629213,
      "lat": 26.416553305277205,
      "construction_format": "Билборды",
      "display_type": null,
      "lighting": null,
      "size": "6x3",
      "material": null
    },
    {
      "gid": "11668",
      "address": "№ 24  ул. Воз-ан-Влен(магазин «Валентина»)",
      "name": "А",
      "lon": 54.491086,
      "lat": 30.42872,
      "construction_format": "Билборды",
      "display_type": null,
      "lighting": null,
      "size": "6x3",
      "material": null
    },
    {
      "gid": "11668",
      "address": "№ 24  ул. Воз-ан-Влен(магазин «Валентина»)",
      "name": "В",
      "lon": 54.491086,
      "lat": 30.42872,
      "construction_format": "Билборды",
      "display_type": null,
      "lighting": null,
      "size": "6x3",
      "material": null
    },
    {
      "gid": "10142",
      "address": "№ 25 г.Сморгонь, ул.Синицкого, 8",
      "name": "А",
      "lon": 54.47706778296692,
      "lat": 26.415154243464972,
      "construction_format": "Билборды",
      "display_type": null,
      "lighting": null,
      "size": "6x3",
      "material": null
    },
    {
      "gid": "10142",
      "address": "№ 25 г.Сморгонь, ул.Синицкого, 8",
      "name": "В",
      "lon": 54.47706778296692,
      "lat": 26.415154243464972,
      "construction_format": "Билборды",
      "display_type": null,
      "lighting": null,
      "size": "6x3",
      "material": null
    },
    {
      "gid": "11669",
      "address": "№ 25 ул. Ленина («Доброном»)",
      "name": "А",
      "lon": 54.518367,
      "lat": 30.433681,
      "construction_format": "Билборды",
      "display_type": null,
      "lighting": null,
      "size": "6x3",
      "material": null
    },
    {
      "gid": "11669",
      "address": "№ 25 ул. Ленина («Доброном»)",
      "name": "В",
      "lon": 54.518367,
      "lat": 30.433681,
      "construction_format": "Билборды",
      "display_type": null,
      "lighting": null,
      "size": "6x3",
      "material": null
    },
    {
      "gid": "11670",
      "address": "№  26 ул. Гомельская – ул.Воз-ан-Влен – ул.Флёрова",
      "name": "А",
      "lon": 54.493364,
      "lat": 30.432846,
      "construction_format": "Билборды",
      "display_type": null,
      "lighting": null,
      "size": "6x3",
      "material": null
    },
    {
      "gid": "11670",
      "address": "№  26 ул. Гомельская – ул.Воз-ан-Влен – ул.Флёрова",
      "name": "В",
      "lon": 54.493364,
      "lat": 30.432846,
      "construction_format": "Билборды",
      "display_type": null,
      "lighting": null,
      "size": "6x3",
      "material": null
    },
    {
      "gid": "11671",
      "address": "№  27 ул.Молокова – у.Мира",
      "name": "А",
      "lon": 54.514873,
      "lat": 30.385276,
      "construction_format": "Билборды",
      "display_type": null,
      "lighting": null,
      "size": "6x3",
      "material": null
    },
    {
      "gid": "11671",
      "address": "№  27 ул.Молокова – у.Мира",
      "name": "В",
      "lon": 54.514873,
      "lat": 30.385276,
      "construction_format": "Билборды",
      "display_type": null,
      "lighting": null,
      "size": "6x3",
      "material": null
    },
    {
      "gid": "11672",
      "address": "№ 28 ул. Шевченко (Юнипол)",
      "name": "А",
      "lon": 54.520901,
      "lat": 30.435012,
      "construction_format": "Нетиповые форматы",
      "display_type": null,
      "lighting": null,
      "size": "6x3",
      "material": null
    },
    {
      "gid": "11672",
      "address": "№ 28 ул. Шевченко (Юнипол)",
      "name": "В",
      "lon": 54.520901,
      "lat": 30.435012,
      "construction_format": "Нетиповые форматы",
      "display_type": null,
      "lighting": null,
      "size": "6x3",
      "material": null
    },
    {
      "gid": "11672",
      "address": "№ 28 ул. Шевченко (Юнипол)",
      "name": "С",
      "lon": 54.520901,
      "lat": 30.435012,
      "construction_format": "Нетиповые форматы",
      "display_type": null,
      "lighting": null,
      "size": "6x3",
      "material": null
    },
    {
      "gid": "11673",
      "address": "№  29 ул.Якубовского (Легмаш)",
      "name": "А",
      "lon": 54.512037,
      "lat": 30.395845,
      "construction_format": "Билборды",
      "display_type": null,
      "lighting": null,
      "size": "6x3",
      "material": null
    },
    {
      "gid": "11673",
      "address": "№  29 ул.Якубовского (Легмаш)",
      "name": "В",
      "lon": 54.512037,
      "lat": 30.395845,
      "construction_format": "Билборды",
      "display_type": null,
      "lighting": null,
      "size": "6x3",
      "material": null
    },
    {
      "gid": "10120",
      "address": "№ 3 г.Молодечно, угол ул.В.Гостинец-ул.Виленская",
      "name": "А",
      "lon": 54.305722,
      "lat": 26.838092,
      "construction_format": "Билборды",
      "display_type": null,
      "lighting": null,
      "size": "6x3",
      "material": null
    },
    {
      "gid": "10120",
      "address": "№ 3 г.Молодечно, угол ул.В.Гостинец-ул.Виленская",
      "name": "В",
      "lon": 54.305722,
      "lat": 26.838092,
      "construction_format": "Билборды",
      "display_type": null,
      "lighting": null,
      "size": "6x3",
      "material": null
    },
    {
      "gid": "11650",
      "address": "№ 3    ул.Мираул. Пограничная",
      "name": "А",
      "lon": 54.513633,
      "lat": 30.404469,
      "construction_format": "Билборды",
      "display_type": null,
      "lighting": null,
      "size": "6x3",
      "material": null
    },
    {
      "gid": "10143",
      "address": "№ 30 г.Островец, угол ул.Володарского и К.Сваяка",
      "name": "А",
      "lon": 54.61411182198129,
      "lat": 25.980590386077083,
      "construction_format": "Билборды",
      "display_type": null,
      "lighting": null,
      "size": "6x3",
      "material": null
    },
    {
      "gid": "10143",
      "address": "№ 30 г.Островец, угол ул.Володарского и К.Сваяка",
      "name": "В",
      "lon": 54.61411182198129,
      "lat": 25.980590386077083,
      "construction_format": "Билборды",
      "display_type": null,
      "lighting": null,
      "size": "6x3",
      "material": null
    },
    {
      "gid": "11674",
      "address": "№ 30  ул.Мира,39А(Инструментальный)",
      "name": "А",
      "lon": 54.51834,
      "lat": 30.405026,
      "construction_format": "Билборды",
      "display_type": null,
      "lighting": null,
      "size": "6x3",
      "material": null
    },
    {
      "gid": "10144",
      "address": "№ 31 г.Островец, ул.Ленинская, напротив дома № 60",
      "name": "А",
      "lon": 54.612833963846604,
      "lat": 25.94907556402941,
      "construction_format": "Билборды",
      "display_type": null,
      "lighting": null,
      "size": "6x3",
      "material": null
    },
    {
      "gid": "10144",
      "address": "№ 31 г.Островец, ул.Ленинская, напротив дома № 60",
      "name": "В",
      "lon": 54.612833963846604,
      "lat": 25.94907556402941,
      "construction_format": "Билборды",
      "display_type": null,
      "lighting": null,
      "size": "6x3",
      "material": null
    },
    {
      "gid": "10145",
      "address": "№ 32 г.Ошмяны, ул.Советская (в зеленой зоне возле моста через р.Лейлубка)",
      "name": "А",
      "lon": 54.430797218537435,
      "lat": 25.954175665138244,
      "construction_format": "Билборды",
      "display_type": null,
      "lighting": null,
      "size": "6x3",
      "material": null
    },
    {
      "gid": "10146",
      "address": "№ 33 г.Ошмяны, ул.Красноармейская, возле дома 94",
      "name": "А",
      "lon": 54.42589519987185,
      "lat": 25.9135205396023,
      "construction_format": "Билборды",
      "display_type": null,
      "lighting": null,
      "size": "6x3",
      "material": null
    },
    {
      "gid": "10146",
      "address": "№ 33 г.Ошмяны, ул.Красноармейская, возле дома 94",
      "name": "В",
      "lon": 54.42589519987185,
      "lat": 25.9135205396023,
      "construction_format": "Билборды",
      "display_type": null,
      "lighting": null,
      "size": "6x3",
      "material": null
    },
    {
      "gid": "10121",
      "address": "№ 4 г.Молодечно, угол ул.В.Гостинец-ул.Космонавтов",
      "name": "А",
      "lon": 54.302719,
      "lat": 26.851496,
      "construction_format": "Билборды",
      "display_type": null,
      "lighting": null,
      "size": "6x3",
      "material": null
    },
    {
      "gid": "11651",
      "address": "№ 4.   ул.Мираул. Якубовского",
      "name": "А",
      "lon": 54.513436,
      "lat": 30.402726,
      "construction_format": "Билборды",
      "display_type": null,
      "lighting": null,
      "size": "6x3",
      "material": null
    },
    {
      "gid": "10122",
      "address": "№ 5 г.Молодечно, ул.В.Гостинец, возле остановки \"магазин Елгава\"",
      "name": "А",
      "lon": 54.303546,
      "lat": 26.845241,
      "construction_format": "Билборды",
      "display_type": null,
      "lighting": null,
      "size": "6x3",
      "material": null
    },
    {
      "gid": "11652",
      "address": "№ 5  ул.Могилёвская (супермаркет «MART INN»)",
      "name": "А",
      "lon": 54.494667,
      "lat": 30.437038,
      "construction_format": "Билборды",
      "display_type": null,
      "lighting": null,
      "size": "6x3",
      "material": null
    },
    {
      "gid": "11652",
      "address": "№ 5  ул.Могилёвская (супермаркет «MART INN»)",
      "name": "В",
      "lon": 54.494667,
      "lat": 30.437038,
      "construction_format": "Билборды",
      "display_type": null,
      "lighting": null,
      "size": "6x3",
      "material": null
    },
    {
      "gid": "10147",
      "address": "№ 50 г.Островец, ул.Ленинская, возле стоянки около моста через р.Лоша",
      "name": "А",
      "lon": 54.61408222589747,
      "lat": 25.952489560107416,
      "construction_format": "Билборды",
      "display_type": null,
      "lighting": null,
      "size": "6x3",
      "material": null
    },
    {
      "gid": "10147",
      "address": "№ 50 г.Островец, ул.Ленинская, возле стоянки около моста через р.Лоша",
      "name": "В",
      "lon": 54.61408222589747,
      "lat": 25.952489560107416,
      "construction_format": "Билборды",
      "display_type": null,
      "lighting": null,
      "size": "6x3",
      "material": null
    },
    {
      "gid": "10148",
      "address": "№ 55 г.Ошмяны, ул.Борунская (возле КБО)",
      "name": "А",
      "lon": 54.42436442701479,
      "lat": 25.93992673537879,
      "construction_format": "Билборды",
      "display_type": null,
      "lighting": null,
      "size": "6x3",
      "material": null
    },
    {
      "gid": "10148",
      "address": "№ 55 г.Ошмяны, ул.Борунская (возле КБО)",
      "name": "В",
      "lon": 54.42436442701479,
      "lat": 25.93992673537879,
      "construction_format": "Билборды",
      "display_type": null,
      "lighting": null,
      "size": "6x3",
      "material": null
    },
    {
      "gid": "10149",
      "address": "№ 56 г.Молодечно, ул.В.Гостинец (Здемелево)",
      "name": "А",
      "lon": 54.311893,
      "lat": 26.796707,
      "construction_format": "Билборды",
      "display_type": null,
      "lighting": null,
      "size": "6x3",
      "material": null
    },
    {
      "gid": "10149",
      "address": "№ 56 г.Молодечно, ул.В.Гостинец (Здемелево)",
      "name": "В",
      "lon": 54.311893,
      "lat": 26.796707,
      "construction_format": "Билборды",
      "display_type": null,
      "lighting": null,
      "size": "6x3",
      "material": null
    },
    {
      "gid": "10123",
      "address": "№ 6 г.Молодечно, ул.В.Гостинец, возле остановочного пункта \"Стоматологическая поликлиника\"",
      "name": "А1",
      "lon": 54.302711,
      "lat": 26.854581,
      "construction_format": "Билборды",
      "display_type": null,
      "lighting": null,
      "size": "6x3",
      "material": null
    },
    {
      "gid": "10123",
      "address": "№ 6 г.Молодечно, ул.В.Гостинец, возле остановочного пункта \"Стоматологическая поликлиника\"",
      "name": "А2",
      "lon": 54.302711,
      "lat": 26.854581,
      "construction_format": "Билборды",
      "display_type": null,
      "lighting": null,
      "size": "6x3",
      "material": null
    },
    {
      "gid": "10123",
      "address": "№ 6 г.Молодечно, ул.В.Гостинец, возле остановочного пункта \"Стоматологическая поликлиника\"",
      "name": "В1",
      "lon": 54.302711,
      "lat": 26.854581,
      "construction_format": "Билборды",
      "display_type": null,
      "lighting": null,
      "size": "6x3",
      "material": null
    },
    {
      "gid": "10123",
      "address": "№ 6 г.Молодечно, ул.В.Гостинец, возле остановочного пункта \"Стоматологическая поликлиника\"",
      "name": "В2",
      "lon": 54.302711,
      "lat": 26.854581,
      "construction_format": "Билборды",
      "display_type": null,
      "lighting": null,
      "size": "6x3",
      "material": null
    },
    {
      "gid": "11653",
      "address": "№ 6.   ул.Могилёвская (ТЦ «МИР», «Евроопт»))",
      "name": "А",
      "lon": 54.50223,
      "lat": 30.436596,
      "construction_format": "Нетиповые форматы",
      "display_type": null,
      "lighting": null,
      "size": "12x3",
      "material": null
    },
    {
      "gid": "10124",
      "address": "№ 7 г.Молодечно, угол ул.Притыцкого-ул.Громадовская",
      "name": "А",
      "lon": 54.311085,
      "lat": 26.839062,
      "construction_format": "Билборды",
      "display_type": null,
      "lighting": null,
      "size": "6x3",
      "material": null
    },
    {
      "gid": "10124",
      "address": "№ 7 г.Молодечно, угол ул.Притыцкого-ул.Громадовская",
      "name": "В",
      "lon": 54.311085,
      "lat": 26.839062,
      "construction_format": "Билборды",
      "display_type": null,
      "lighting": null,
      "size": "6x3",
      "material": null
    },
    {
      "gid": "11654",
      "address": "№ 7   ул.Пушкина/ул.Кирова (микрорайон «Восточный»)",
      "name": "А",
      "lon": 54.508877,
      "lat": 30.412648,
      "construction_format": "Билборды",
      "display_type": null,
      "lighting": null,
      "size": "6x3",
      "material": null
    },
    {
      "gid": "10125",
      "address": "№ 8 г.Молодечно, ул.Толстого, возле дома №1",
      "name": "А",
      "lon": 54.306588,
      "lat": 26.840943,
      "construction_format": "Билборды",
      "display_type": null,
      "lighting": null,
      "size": "6x3",
      "material": null
    },
    {
      "gid": "10125",
      "address": "№ 8 г.Молодечно, ул.Толстого, возле дома №1",
      "name": "В",
      "lon": 54.306588,
      "lat": 26.840943,
      "construction_format": "Билборды",
      "display_type": null,
      "lighting": null,
      "size": "6x3",
      "material": null
    },
    {
      "gid": "11655",
      "address": "№ 8.    ул.Могилёвская, 4 (мемориал «Катюша»)",
      "name": "А",
      "lon": 54.505771,
      "lat": 30.431753,
      "construction_format": "Билборды",
      "display_type": null,
      "lighting": null,
      "size": "6x3",
      "material": null
    },
    {
      "gid": "11655",
      "address": "№ 8.    ул.Могилёвская, 4 (мемориал «Катюша»)",
      "name": "В",
      "lon": 54.505771,
      "lat": 30.431753,
      "construction_format": "Билборды",
      "display_type": null,
      "lighting": null,
      "size": "6x3",
      "material": null
    },
    {
      "gid": "10126",
      "address": "№ 9 г.Молодечно, ул.В.Гостинец, возле супермаркета \"Рублевский\"",
      "name": "А",
      "lon": 54.303097,
      "lat": 26.848687,
      "construction_format": "Билборды",
      "display_type": null,
      "lighting": null,
      "size": "6x3",
      "material": null
    },
    {
      "gid": "10126",
      "address": "№ 9 г.Молодечно, ул.В.Гостинец, возле супермаркета \"Рублевский\"",
      "name": "В",
      "lon": 54.303097,
      "lat": 26.848687,
      "construction_format": "Билборды",
      "display_type": null,
      "lighting": null,
      "size": "6x3",
      "material": null
    },
    {
      "gid": "11656",
      "address": "№ 9    ул.Советская(о/п «Свитанак»)",
      "name": "А",
      "lon": 54.503801,
      "lat": 30.41416,
      "construction_format": "Билборды",
      "display_type": null,
      "lighting": null,
      "size": "6x3",
      "material": null
    },
    {
      "gid": "11656",
      "address": "№ 9    ул.Советская(о/п «Свитанак»)",
      "name": "В",
      "lon": 54.503801,
      "lat": 30.41416,
      "construction_format": "Билборды",
      "display_type": null,
      "lighting": null,
      "size": "6x3",
      "material": null
    },
    {
      "gid": "9981",
      "address": "1-2 Ул. Минская (ТЦ \"Виталюр\")",
      "name": "А",
      "lon": 53.180061,
      "lat": 29.195786,
      "construction_format": "Билборды",
      "display_type": null,
      "lighting": null,
      "size": "6x3",
      "material": null
    },
    {
      "gid": "9981",
      "address": "1-2 Ул. Минская (ТЦ \"Виталюр\")",
      "name": "В",
      "lon": 53.180061,
      "lat": 29.195786,
      "construction_format": "Билборды",
      "display_type": null,
      "lighting": null,
      "size": "6x3",
      "material": null
    },
    {
      "gid": "7546",
      "address": "1. Билборд 6х3 м напр.Независимости, 191б(1)",
      "name": "А",
      "lon": 53.95064419,
      "lat": 27.70385726,
      "construction_format": "Билборды",
      "display_type": null,
      "lighting": null,
      "size": "6x3",
      "material": null
    },
    {
      "gid": "7546",
      "address": "1. Билборд 6х3 м напр.Независимости, 191б(1)",
      "name": "В",
      "lon": 53.95064419,
      "lat": 27.70385726,
      "construction_format": "Билборды",
      "display_type": null,
      "lighting": null,
      "size": "6x3",
      "material": null
    },
    {
      "gid": "8123",
      "address": "1 Космонавтов пр. и ул. Ефремова (корпус «Мед. Университета»)",
      "name": "А",
      "lon": 52.455738215500546,
      "lat": 30.959263957831848,
      "construction_format": "Билборды",
      "display_type": null,
      "lighting": null,
      "size": "6x3",
      "material": null
    },
    {
      "gid": "7555",
      "address": "10. Биллборд 8х4 м на МКАД 12+470 км (район ул.Свислочская – ул. Ташкентская, 10-я больница)",
      "name": "А",
      "lon": 53.84118565,
      "lat": 27.66304388,
      "construction_format": "Билборды",
      "display_type": null,
      "lighting": null,
      "size": "6x3",
      "material": null
    },
    {
      "gid": "7555",
      "address": "10. Биллборд 8х4 м на МКАД 12+470 км (район ул.Свислочская – ул. Ташкентская, 10-я больница)",
      "name": "В",
      "lon": 53.84118565,
      "lat": 27.66304388,
      "construction_format": "Билборды",
      "display_type": null,
      "lighting": null,
      "size": "6x3",
      "material": null
    },
    {
      "gid": "7591",
      "address": "№10 ул. Красная-пр-т Машерова",
      "name": "А",
      "lon": 53.91317101,
      "lat": 27.57481011,
      "construction_format": "Билборды",
      "display_type": null,
      "lighting": null,
      "size": "6x3",
      "material": null
    },
    {
      "gid": "7670",
      "address": "100-Пр.-Партизанский,-84",
      "name": "А",
      "lon": 53.86986879614372,
      "lat": 27.645215642045034,
      "construction_format": "Билборды",
      "display_type": null,
      "lighting": null,
      "size": "6x3",
      "material": null
    },
    {
      "gid": "7671",
      "address": "101-Пр. Партизанский, перед развязкой с МКАД",
      "name": "А",
      "lon": 53.861206863992734,
      "lat": 27.67612013498934,
      "construction_format": "Билборды",
      "display_type": null,
      "lighting": null,
      "size": "6x3",
      "material": null
    },
    {
      "gid": "7671",
      "address": "101-Пр. Партизанский, перед развязкой с МКАД",
      "name": "В",
      "lon": 53.861206863992734,
      "lat": 27.67612013498934,
      "construction_format": "Билборды",
      "display_type": null,
      "lighting": null,
      "size": "6x3",
      "material": null
    },
    {
      "gid": "7672",
      "address": "102 МКАД, 33-й км (пересечение с ул. Мазурова)",
      "name": "А",
      "lon": 53.895085301533854,
      "lat": 27.410628899776924,
      "construction_format": "Билборды",
      "display_type": null,
      "lighting": null,
      "size": "6x3",
      "material": null
    },
    {
      "gid": "7672",
      "address": "102 МКАД, 33-й км (пересечение с ул. Мазурова)",
      "name": "В",
      "lon": 53.895085301533854,
      "lat": 27.410628899776924,
      "construction_format": "Билборды",
      "display_type": null,
      "lighting": null,
      "size": "6x3",
      "material": null
    },
    {
      "gid": "7673",
      "address": "103 МКАД, 30-й км (пересечение с ул. Монтажников)",
      "name": "А",
      "lon": 53.87141173776658,
      "lat": 27.42131176460221,
      "construction_format": "Билборды",
      "display_type": null,
      "lighting": null,
      "size": "6x3",
      "material": null
    },
    {
      "gid": "7673",
      "address": "103 МКАД, 30-й км (пересечение с ул. Монтажников)",
      "name": "В",
      "lon": 53.87141173776658,
      "lat": 27.42131176460221,
      "construction_format": "Билборды",
      "display_type": null,
      "lighting": null,
      "size": "6x3",
      "material": null
    },
    {
      "gid": "7674",
      "address": "104 Ул. Матусевича, 66",
      "name": "А",
      "lon": 53.91758564399112,
      "lat": 27.454980253303493,
      "construction_format": "Билборды",
      "display_type": null,
      "lighting": null,
      "size": "6x3",
      "material": null
    },
    {
      "gid": "7675",
      "address": "105 МКАД, 11-й км, пересечение с ул. Свислочской",
      "name": "А",
      "lon": 53.84593991193982,
      "lat": 27.667713960195513,
      "construction_format": "Билборды",
      "display_type": null,
      "lighting": null,
      "size": "6x3",
      "material": null
    },
    {
      "gid": "7675",
      "address": "105 МКАД, 11-й км, пересечение с ул. Свислочской",
      "name": "В",
      "lon": 53.84593991193982,
      "lat": 27.667713960195513,
      "construction_format": "Билборды",
      "display_type": null,
      "lighting": null,
      "size": "6x3",
      "material": null
    },
    {
      "gid": "7676",
      "address": "106 Ул. Матусевича, 72",
      "name": "А",
      "lon": 53.917911673378704,
      "lat": 27.450045039654263,
      "construction_format": "Билборды",
      "display_type": null,
      "lighting": null,
      "size": "6x3",
      "material": null
    },
    {
      "gid": "7676",
      "address": "106 Ул. Матусевича, 72",
      "name": "В",
      "lon": 53.917911673378704,
      "lat": 27.450045039654263,
      "construction_format": "Билборды",
      "display_type": null,
      "lighting": null,
      "size": "6x3",
      "material": null
    },
    {
      "gid": "7677",
      "address": "107 Ул. Притыцкого, ТРЦ Скала",
      "name": "А",
      "lon": 53.907897203619335,
      "lat": 27.468888537415705,
      "construction_format": "Билборды",
      "display_type": null,
      "lighting": null,
      "size": "6x3",
      "material": null
    },
    {
      "gid": "7677",
      "address": "107 Ул. Притыцкого, ТРЦ Скала",
      "name": "В",
      "lon": 53.907897203619335,
      "lat": 27.468888537415705,
      "construction_format": "Билборды",
      "display_type": null,
      "lighting": null,
      "size": "6x3",
      "material": null
    },
    {
      "gid": "7678",
      "address": "108 Ул. Притыцкого, 79",
      "name": "А",
      "lon": 53.9062514306162,
      "lat": 27.457490927332316,
      "construction_format": "Билборды",
      "display_type": null,
      "lighting": null,
      "size": "6x3",
      "material": null
    },
    {
      "gid": "7679",
      "address": "109 Ул. Богдановича, напротив д. 112",
      "name": "А",
      "lon": 53.93520745721455,
      "lat": 27.58067218193587,
      "construction_format": "Билборды",
      "display_type": null,
      "lighting": null,
      "size": "6x3",
      "material": null
    },
    {
      "gid": "9985",
      "address": "11-13 ул. Минская-ул. Крылова (призма)",
      "name": "А1",
      "lon": 53.157496,
      "lat": 29.215486,
      "construction_format": "Нетиповые форматы",
      "display_type": "Призматрон",
      "lighting": null,
      "size": "6x3",
      "material": null
    },
    {
      "gid": "9985",
      "address": "11-13 ул. Минская-ул. Крылова (призма)",
      "name": "А2",
      "lon": 53.157496,
      "lat": 29.215486,
      "construction_format": "Нетиповые форматы",
      "display_type": "Призматрон",
      "lighting": null,
      "size": "6x3",
      "material": null
    },
    {
      "gid": "9985",
      "address": "11-13 ул. Минская-ул. Крылова (призма)",
      "name": "А3",
      "lon": 53.157496,
      "lat": 29.215486,
      "construction_format": "Нетиповые форматы",
      "display_type": "Призматрон",
      "lighting": null,
      "size": "6x3",
      "material": null
    },
    {
      "gid": "7556",
      "address": "11. Биллборд 8х4 м на МКАД 12+670 км (район ул.Свислочская – ул. Ташкентская, 10-я больница)",
      "name": "А",
      "lon": 53.83739026,
      "lat": 27.65645814,
      "construction_format": "Билборды",
      "display_type": null,
      "lighting": null,
      "size": "6x3",
      "material": null
    },
    {
      "gid": "7556",
      "address": "11. Биллборд 8х4 м на МКАД 12+670 км (район ул.Свислочская – ул. Ташкентская, 10-я больница)",
      "name": "В",
      "lon": 53.83739026,
      "lat": 27.65645814,
      "construction_format": "Билборды",
      "display_type": null,
      "lighting": null,
      "size": "6x3",
      "material": null
    },
    {
      "gid": "7680",
      "address": "110 Ул. Богдановича, напротив д. 108",
      "name": "А",
      "lon": 53.933158491300155,
      "lat": 27.578494047880262,
      "construction_format": "Билборды",
      "display_type": null,
      "lighting": null,
      "size": "6x3",
      "material": null
    },
    {
      "gid": "7681",
      "address": "111 Ул. Богдановича, напротив д. 88",
      "name": "А",
      "lon": 53.932263400371085,
      "lat": 27.577621682859235,
      "construction_format": "Билборды",
      "display_type": null,
      "lighting": null,
      "size": "6x3",
      "material": null
    },
    {
      "gid": "7682",
      "address": "112 Ул. Орловская, Сквер №1",
      "name": "А",
      "lon": 53.9321624764349,
      "lat": 27.57374631727737,
      "construction_format": "Билборды",
      "display_type": null,
      "lighting": null,
      "size": "6x3",
      "material": null
    },
    {
      "gid": "7683",
      "address": "113 Пр. Пушкина, 50",
      "name": "А",
      "lon": 53.91536615127371,
      "lat": 27.494088884978325,
      "construction_format": "Билборды",
      "display_type": null,
      "lighting": null,
      "size": "6x3",
      "material": null
    },
    {
      "gid": "7684",
      "address": "114 Ул. Орды, 6 №2",
      "name": "А",
      "lon": 53.842946663045595,
      "lat": 27.477284443125455,
      "construction_format": "Билборды",
      "display_type": null,
      "lighting": null,
      "size": "6x3",
      "material": null
    },
    {
      "gid": "7684",
      "address": "114 Ул. Орды, 6 №2",
      "name": "В",
      "lon": 53.842946663045595,
      "lat": 27.477284443125455,
      "construction_format": "Билборды",
      "display_type": null,
      "lighting": null,
      "size": "6x3",
      "material": null
    },
    {
      "gid": "7685",
      "address": "115 Ул. Бабушкина, 6а",
      "name": "А",
      "lon": 53.821568679891875,
      "lat": 27.579986663870574,
      "construction_format": "Билборды",
      "display_type": null,
      "lighting": null,
      "size": "6x3",
      "material": null
    },
    {
      "gid": "7685",
      "address": "115 Ул. Бабушкина, 6а",
      "name": "В",
      "lon": 53.821568679891875,
      "lat": 27.579986663870574,
      "construction_format": "Билборды",
      "display_type": null,
      "lighting": null,
      "size": "6x3",
      "material": null
    },
    {
      "gid": "7686",
      "address": "116 Ул. Серова",
      "name": "А",
      "lon": 53.843405191023315,
      "lat": 27.538933544726397,
      "construction_format": "Билборды",
      "display_type": null,
      "lighting": null,
      "size": "6x3",
      "material": null
    },
    {
      "gid": "7686",
      "address": "116 Ул. Серова",
      "name": "В",
      "lon": 53.843405191023315,
      "lat": 27.538933544726397,
      "construction_format": "Билборды",
      "display_type": null,
      "lighting": null,
      "size": "6x3",
      "material": null
    },
    {
      "gid": "7687",
      "address": "117 Пр. Дзержинского (развязка с МКАД, выезд из Минска)",
      "name": "А",
      "lon": 53.84183003908104,
      "lat": 27.467904274957608,
      "construction_format": "Билборды",
      "display_type": null,
      "lighting": null,
      "size": "6x3",
      "material": null
    },
    {
      "gid": "7687",
      "address": "117 Пр. Дзержинского (развязка с МКАД, выезд из Минска)",
      "name": "В",
      "lon": 53.84183003908104,
      "lat": 27.467904274957608,
      "construction_format": "Билборды",
      "display_type": null,
      "lighting": null,
      "size": "6x3",
      "material": null
    },
    {
      "gid": "7688",
      "address": "118 Ул. Всехсвятская, №3",
      "name": "А",
      "lon": 53.94548733512109,
      "lat": 27.66517920013272,
      "construction_format": "Билборды",
      "display_type": null,
      "lighting": null,
      "size": "6x3",
      "material": null
    },
    {
      "gid": "7688",
      "address": "118 Ул. Всехсвятская, №3",
      "name": "В",
      "lon": 53.94548733512109,
      "lat": 27.66517920013272,
      "construction_format": "Билборды",
      "display_type": null,
      "lighting": null,
      "size": "6x3",
      "material": null
    },
    {
      "gid": "7689",
      "address": "119 Игуменский тракт (съезд с МКАД)",
      "name": "А",
      "lon": 53.83379517684582,
      "lat": 27.57535073675259,
      "construction_format": "Билборды",
      "display_type": null,
      "lighting": null,
      "size": "6x3",
      "material": null
    },
    {
      "gid": "7592",
      "address": "№11А ул. Тимирязева, 121-1",
      "name": "А",
      "lon": 53.93229298,
      "lat": 27.46195872,
      "construction_format": "Билборды",
      "display_type": null,
      "lighting": null,
      "size": "6x3",
      "material": null
    },
    {
      "gid": "7557",
      "address": "12. Биллборд 8х4 м на МКАД 13+655 км  (до съездана ул. Ташкентская)",
      "name": "А",
      "lon": 53.83393168,
      "lat": 27.64006133,
      "construction_format": "Билборды",
      "display_type": null,
      "lighting": null,
      "size": "6x3",
      "material": null
    },
    {
      "gid": "7557",
      "address": "12. Биллборд 8х4 м на МКАД 13+655 км  (до съездана ул. Ташкентская)",
      "name": "В",
      "lon": 53.83393168,
      "lat": 27.64006133,
      "construction_format": "Билборды",
      "display_type": null,
      "lighting": null,
      "size": "6x3",
      "material": null
    },
    {
      "gid": "7690",
      "address": "120 Ул. Бабушкина, 8а",
      "name": "А",
      "lon": 53.818322589369004,
      "lat": 27.58161650287711,
      "construction_format": "Билборды",
      "display_type": null,
      "lighting": null,
      "size": "6x3",
      "material": null
    },
    {
      "gid": "7690",
      "address": "120 Ул. Бабушкина, 8а",
      "name": "В",
      "lon": 53.818322589369004,
      "lat": 27.58161650287711,
      "construction_format": "Билборды",
      "display_type": null,
      "lighting": null,
      "size": "6x3",
      "material": null
    },
    {
      "gid": "7691",
      "address": "121 Ул. Сырокомли, 18 (ТЦ Автозапчасть)",
      "name": "А",
      "lon": 53.842497233230446,
      "lat": 27.560638796111355,
      "construction_format": "Билборды",
      "display_type": null,
      "lighting": null,
      "size": "6x3",
      "material": null
    },
    {
      "gid": "7691",
      "address": "121 Ул. Сырокомли, 18 (ТЦ Автозапчасть)",
      "name": "В",
      "lon": 53.842497233230446,
      "lat": 27.560638796111355,
      "construction_format": "Билборды",
      "display_type": null,
      "lighting": null,
      "size": "6x3",
      "material": null
    },
    {
      "gid": "7692",
      "address": "122 Ул. Даумана",
      "name": "А",
      "lon": 53.91987543292137,
      "lat": 27.551531515628714,
      "construction_format": "Билборды",
      "display_type": null,
      "lighting": null,
      "size": "6x3",
      "material": null
    },
    {
      "gid": "7693",
      "address": "123 Ул. Шаранговича, 19",
      "name": "А",
      "lon": 53.88733088054724,
      "lat": 27.452335752666734,
      "construction_format": "Билборды",
      "display_type": null,
      "lighting": null,
      "size": "6x3",
      "material": null
    },
    {
      "gid": "7694",
      "address": "124 Пр. Рокоссовского, 1",
      "name": "А",
      "lon": 53.874591919603745,
      "lat": 27.597175738770424,
      "construction_format": "Билборды",
      "display_type": null,
      "lighting": null,
      "size": "6x3",
      "material": null
    },
    {
      "gid": "7695",
      "address": "125 Пр. Дзержинского, 100 (ТЦ Кирмаш)",
      "name": "А",
      "lon": 53.86335965189896,
      "lat": 27.484075585439587,
      "construction_format": "Билборды",
      "display_type": null,
      "lighting": null,
      "size": "6x3",
      "material": null
    },
    {
      "gid": "7696",
      "address": "126 Ул. Денисовская, 47",
      "name": "А",
      "lon": 53.873586678812316,
      "lat": 27.579796200289447,
      "construction_format": "Билборды",
      "display_type": null,
      "lighting": null,
      "size": "6x3",
      "material": null
    },
    {
      "gid": "7697",
      "address": "127 Пл. Казинца",
      "name": "А",
      "lon": 53.84473277459045,
      "lat": 27.506756705047415,
      "construction_format": "Билборды",
      "display_type": null,
      "lighting": null,
      "size": "6x3",
      "material": null
    },
    {
      "gid": "7698",
      "address": "128 Ул. Платонова, 32",
      "name": "А",
      "lon": 53.91212738809634,
      "lat": 27.598344783176202,
      "construction_format": "Билборды",
      "display_type": null,
      "lighting": null,
      "size": "6x3",
      "material": null
    },
    {
      "gid": "7698",
      "address": "128 Ул. Платонова, 32",
      "name": "В",
      "lon": 53.91212738809634,
      "lat": 27.598344783176202,
      "construction_format": "Билборды",
      "display_type": null,
      "lighting": null,
      "size": "6x3",
      "material": null
    },
    {
      "gid": "7699",
      "address": "129 Ул. Тимирязева, 46",
      "name": "А",
      "lon": 53.917288,
      "lat": 27.519656,
      "construction_format": "Билборды",
      "display_type": null,
      "lighting": null,
      "size": "6x3",
      "material": null
    },
    {
      "gid": "7699",
      "address": "129 Ул. Тимирязева, 46",
      "name": "В",
      "lon": 53.917288,
      "lat": 27.519656,
      "construction_format": "Билборды",
      "display_type": null,
      "lighting": null,
      "size": "6x3",
      "material": null
    },
    {
      "gid": "7593",
      "address": "№12А ул. Тимирязева, 121-2",
      "name": "А",
      "lon": 53.93240536,
      "lat": 27.46126135,
      "construction_format": "Билборды",
      "display_type": null,
      "lighting": null,
      "size": "6x3",
      "material": null
    },
    {
      "gid": "7558",
      "address": "13. Биллборд 8х4 м на МКАД 13+940 км  (до съезда на ул. Ташкентская)",
      "name": "А",
      "lon": 53.83392216,
      "lat": 27.63574397,
      "construction_format": "Билборды",
      "display_type": null,
      "lighting": null,
      "size": "6x3",
      "material": null
    },
    {
      "gid": "7558",
      "address": "13. Биллборд 8х4 м на МКАД 13+940 км  (до съезда на ул. Ташкентская)",
      "name": "В",
      "lon": 53.83392216,
      "lat": 27.63574397,
      "construction_format": "Билборды",
      "display_type": null,
      "lighting": null,
      "size": "6x3",
      "material": null
    }
  ]
}